     3.04           OBSERVATION DATA    M: Mixed            RINEX VERSION / TYPE
CONVBIN 2.4.3                           20260616 141751 UTC PGM / RUN BY / DATE 
format: u-blox UBX                                          COMMENT             
log: C:\Users\RG\OneDrive - Universitatea Politehnica BucureCOMMENT             
                                                            MARKER NAME         
                                                            MARKER NUMBER       
                                                            MARKER TYPE         
                                                            OBSERVER / AGENCY   
                                                            REC # / TYPE / VERS 
                                                            ANT # / TYPE        
  4098607.0824  2003074.9657  4442840.3321                  APPROX POSITION XYZ 
        0.0000        0.0000        0.0000                  ANTENNA: DELTA H/E/N
G    4 C1C L1C D1C S1C                                      SYS / # / OBS TYPES 
R    7 C1C L1C D1C S1C C2C D2C S2C                          SYS / # / OBS TYPES 
E    4 C1C L1C D1C S1C                                      SYS / # / OBS TYPES 
S    4 C1C L1C D1C S1C                                      SYS / # / OBS TYPES 
C    4 C2I L2I D2I S2I                                      SYS / # / OBS TYPES 
  2026    06    16    06    57   46.0030000     GPS         TIME OF FIRST OBS   
  2026    06    16    07    44   30.0030000     GPS         TIME OF LAST OBS    
G L1C                                                       SYS / PHASE SHIFT   
R L1C                                                       SYS / PHASE SHIFT   
E L1C  0.00000                                              SYS / PHASE SHIFT   
S L1C                                                       SYS / PHASE SHIFT   
C L2I                                                       SYS / PHASE SHIFT   
  9 R07  5 R08  6 R12 -1 R13 -2 R14 -7 R21  4 R22 -3 R23  3 GLONASS SLOT / FRQ #
    R24  2                                                  GLONASS SLOT / FRQ #
 C1C    0.000 C1P    0.000 C2C    0.000 C2P    0.000        GLONASS COD/PHS/BIS 
                                                            END OF HEADER       
> 2026 06 16 06 57 46.0030000  0 27                     
G23  21363284.355   112264825.6281        573.000          33.000  
G10  23059795.233   121180048.9891       2483.829          40.000  
E10  24885495.909   130774163.5431        773.759          40.000  
C42  24620507.740   128205444.8831       1559.033          35.000  
C09  38097425.803                1       -468.029          33.000  
C13  23197685.994   120796439.5401        826.374          39.000  
R13  21450814.722                        -427.860          28.000                                                  
R12  21994108.458   117488595.3591      -3807.373          32.000    21994121.902       -2964.958          23.000  
R22  20448043.239   109153033.6231      -1141.831          36.000                                                  
S23  38614109.923   202918518.5621       -376.205          38.000  
G18  22051541.186   115881632.3461      -2207.496          37.000  
G26  22766982.009                2      -2865.742          31.000  
E33  26292313.321   138167061.2031      -2603.719          29.000  
C38  22352707.453   116396414.6611       -433.899          39.000  
R14  24505891.516                        3113.068          30.000                                                  
R07  22514096.860   120519718.9341       2674.785          33.000                                                  
R23  21214126.600                        1216.334          30.000                                                  
G27  22321997.736   117302889.7751       2140.890          37.000  
E31  26704706.425   140334157.7981      -3275.109          28.000  
E14  18622491.990    97861855.9631      -1826.081          40.000  
E16  24454201.197   128507692.9031       -924.732          39.000  
G15  24000196.583                         416.858          29.000  
E12  24034918.534   126304350.2851       -406.432          37.000  
G08  25158542.428   132209040.5601       2994.321          35.000  
E11  24889279.106                3       1765.307          21.000  
G16  21549432.860   113243038.4441       -819.612          35.000  
E25  26386811.604   138663635.0261       1586.204          35.000  
> 2026 06 16 07 44 30.0030000  0 23                     
G10  22042329.588   115833227.4981       1234.073          44.000  
E10  24642731.035   129498432.8971        136.361          37.000  
C42  24143280.647                3        133.020          32.000  
C09  38441313.011   200174004.3521       -805.367          35.000  
C27  27138271.655                2       2452.125          26.000  
C28  23662979.333   123219344.558        1564.030          37.000  
C13  22906700.580   119281201.7251        214.546          41.000  
R07  21602247.635                3        630.379          28.000                                                  
R08  23125002.326                3       3763.798          27.000                                                  
S23  38788603.628   203835486.0671       -297.280          37.000  
E14  20451800.482                3      -4892.660          25.000  
G26  24531318.642                3      -3635.428          23.000  
C37  25997793.177                2      -1741.283          28.000  
C38  22766283.190   118550010.9511      -1127.674          38.000  
R22  21258740.074   113480601.7913      -1937.121          36.000                                                  
G27  21424964.084   112588950.0943       1112.953          35.000  
G23  21506288.006   113016306.1651      -1108.925          37.000  
E16  25256955.288                3      -2068.394          23.000  
E12  24418721.298   128321247.9791      -1013.865          35.000  
G08  23609251.883                3       2710.448          28.000  
E11  24067149.976                        1290.872          33.000  
G02  25687045.646                2       2521.513          27.000  
E25  25789559.473   135525049.9811        571.555          35.000  
